%time,field.header.seq,field.header.stamp,field.header.frame_id,field.child_frame_id,field.transform.translation.x,field.transform.translation.y,field.transform.translation.z,field.transform.rotation.x,field.transform.rotation.y,field.transform.rotation.z,field.transform.rotation.w
1349442726048940345,60143,1349442726048993269,/world,vicon/auk/auk,0.000635525527433,-0.000144249944234,0.100285962254,-0.00038539182164,-0.00204799741301,0.000621917843924,0.999997635196
1349442726058457009,60144,1349442726058956642,/world,vicon/auk/auk,0.000355410803256,-0.000217409396141,0.100096605258,0.00011300480184,-0.00149951773061,8.4580778919e-05,0.999998865761
1349442726068895453,60145,1349442726068914092,/world,vicon/auk/auk,0.000331177246591,-0.000204517462538,0.100113335724,0.000111179021852,-0.00140114689098,-9.3491801886e-05,0.999999007842
1349442726078148669,60146,1349442726078750853,/world,vicon/auk/auk,0.000399876355812,-0.00021135655414,0.100060696423,5.46984724e-05,-0.00159279751167,6.44900103346e-05,0.999998727922
1349442726088457276,60147,1349442726088866923,/world,vicon/auk/auk,0.000375716343678,-0.000160681740034,0.100006941931,0.000120958563383,-0.00117541986356,0.000100198642739,0.999999296858
1349442726098071995,60148,1349442726098837957,/world,vicon/auk/auk,0.000480676381632,-0.000289186104454,0.100318819358,-0.00056895365963,-0.000499088778512,0.000589800162034,0.999999539669
1349442726108693295,60149,1349442726109016641,/world,vicon/auk/auk,0.00029889861603,-0.000223202119681,0.100099484824,7.71215923825e-05,-0.00129218866605,0.000112133112444,0.999999155863
1349442726118187394,60150,1349442726119031589,/world,vicon/auk/auk,0.000359460753838,-0.000161963636522,0.100039605496,0.000220591761392,-0.00164066951486,0.000147858741317,0.999998618839
1349442726128129330,60151,1349442726128827154,/world,vicon/auk/auk,0.000356597472166,-0.000199759681172,0.100066691569,3.63622922452e-05,-0.00137047223522,0.000143976958542,0.999999049877
1349442726138323044,60152,1349442726138756913,/world,vicon/auk/auk,0.000359929706853,-0.0001749081453,0.100033001219,0.00025657037796,-0.00136983067858,7.74929612997e-05,0.999999025865
1349442726148054404,60153,1349442726148586660,/world,vicon/auk/auk,0.000476499752098,-6.75012664934e-05,0.099988665784,8.75914401201e-05,-0.00131360805129,0.00018130777049,0.999999116944
1349442726157552836,60154,1349442726158474768,/world,vicon/auk/auk,0.000484323750181,1.94041211266e-05,0.0998548910244,-0.000447935763305,-0.000717593270816,0.000103277867808,0.999999636873
1349442726167743548,60155,1349442726168449018,/world,vicon/auk/auk,0.000422205025655,-8.84525474093e-05,0.0999916774598,3.95748764242e-05,-0.00120479726742,0.000110050382812,0.999999267393
1349442726177720897,60156,1349442726178520345,/world,vicon/auk/auk,0.000355488104919,-0.000296049250314,0.100100319699,-6.65810193443e-05,-0.00116426227133,-8.55648884208e-06,0.999999319993
1349442726187645088,60157,1349442726188559363,/world,vicon/auk/auk,0.000525358771431,-5.40385693188e-05,0.0997751037275,-0.000486963362855,-0.000812271519204,0.000188597922829,0.999999533756
1349442726197963893,60158,1349442726198598591,/world,vicon/auk/auk,0.000443247093973,-8.84958002726e-05,0.0999967187279,-0.000180088991673,-0.00091020647797,9.30504985979e-05,0.999999565217
1349442726207636517,60159,1349442726208574495,/world,vicon/auk/auk,0.000428935957379,-0.000229062344677,0.100066153004,-3.30615693209e-05,-0.00117516103548,-2.11079010571e-05,0.999999308729
1349442726217585921,60160,1349442726218510322,/world,vicon/auk/auk,0.000462946897135,-0.000190108016907,0.100124945912,-0.000217804622588,0.000882562342149,6.02198361481e-05,0.999999585009
1349442726228136960,60161,1349442726228513275,/world,vicon/auk/auk,0.000208502586622,-0.000203076018164,0.100141795502,0.000102760379403,-0.000460181150476,0.00013341159018,0.999999879937
1349442726237966859,60162,1349442726238724389,/world,vicon/auk/auk,0.000395461702805,-0.000180600892312,0.0999878863601,-4.01784835623e-06,-0.00128628728133,0.000176204800139,0.9999991572
1349442726248704731,60163,1349442726248649467,/world,vicon/auk/auk,0.000445879867103,-6.60276305946e-05,0.0999860834766,0.000100864394817,-0.00146941086015,8.11166956049e-05,0.999998912038
1349442726258030149,60164,1349442726258729867,/world,vicon/auk/auk,0.000363448138372,-0.000185234952043,0.100127322269,0.000261047315945,-0.00177579944413,7.04909125019e-05,0.99999838671
1349442726268177923,60165,1349442726268751460,/world,vicon/auk/auk,0.000427815242306,-0.000223370759721,0.100020710026,-5.80906659239e-05,-0.00151134215021,-2.6671771071e-05,0.999998855879
1349442726278151763,60166,1349442726278776249,/world,vicon/auk/auk,0.00038460145395,-0.00021733328638,0.100062293215,2.33091798354e-05,-0.00145487415264,3.24304851218e-05,0.999998940873
1349442726288987209,60167,1349442726289056854,/world,vicon/auk/auk,0.000441768205011,-0.000120071732148,0.100020677753,-0.000106832608776,-0.000970597370342,5.7748889631e-05,0.999999521596
1349442726298370252,60168,1349442726299046954,/world,vicon/auk/auk,0.000408318271885,-8.45980211103e-05,0.100014443688,-0.00013642267226,-0.000904467233698,3.42352114271e-05,0.999999581078
1349442726307946987,60169,1349442726308818652,/world,vicon/auk/auk,0.000314451007448,-0.000207464517542,0.100060163957,0.000159964670467,-0.00139158313806,9.34209486565e-05,0.99999901459
1349442726318527062,60170,1349442726318661508,/world,vicon/auk/auk,0.000375541496009,-0.000202744285223,0.100019410442,0.000149728899695,-0.00171682490248,0.000128911521878,0.999998506737
1349442726328211573,60171,1349442726328796376,/world,vicon/auk/auk,0.000348249385661,-0.000233069197507,0.10007358726,-5.56957497247e-06,-0.0011871588196,0.000159987734333,0.999999282513
1349442726338445921,60172,1349442726338888372,/world,vicon/auk/auk,0.00038825144468,-0.000258497729703,0.100033043913,0.00012826761104,-0.00155025800213,5.7222529449e-05,0.999998788486
1349442726352435201,60173,1349442726348832470,/world,vicon/auk/auk,0.000367056056681,-0.000194315203003,0.100071542405,6.90165868623e-05,-0.00151784163637,-4.08856456753e-07,0.999998845696
1349442726358509989,60174,1349442726359026189,/world,vicon/auk/auk,0.000379707512865,-0.000212378657569,0.100056633637,7.76751576042e-05,-0.00171669841384,6.60590328511e-05,0.999998521274
1349442726368407089,60175,1349442726369237860,/world,vicon/auk/auk,0.000396323285312,-0.000231090918896,0.100073792335,3.80913009184e-05,-0.00135269468755,0.000171989217388,0.999999069592
1349442726378145776,60176,1349442726378885137,/world,vicon/auk/auk,0.000382952824543,-0.000213371223735,0.100030057267,5.95930767983e-05,-0.00125560659798,9.62630939701e-05,0.999999205317
1349442726388531497,60177,1349442726388992910,/world,vicon/auk/auk,0.000415731076653,-0.000198986059168,0.100013118714,2.61314301038e-05,-0.00120936880033,8.02512332698e-05,0.999999265152
1349442726399284028,60178,1349442726398952818,/world,vicon/auk/auk,0.000371389288181,-0.000225791137359,0.100055871369,7.77170297208e-05,-0.00137949155053,2.5163709717e-05,0.999999045165
1349442726408186831,60179,1349442726408925250,/world,vicon/auk/auk,0.000357589966729,-0.000214311891709,0.100126287283,0.000224841305622,-0.00166310302434,5.78379451005e-05,0.999998590094
1349442726418589526,60180,1349442726418782854,/world,vicon/auk/auk,0.000362867636234,-0.000191533374056,0.100101465741,0.000145369593453,-0.00144024492043,0.000178686940251,0.999998936316
1349442726428456516,60181,1349442726428946590,/world,vicon/auk/auk,0.000690087062049,-0.000151063147909,0.100279435732,-0.000457932083952,-0.00175149154243,0.000534890173132,0.999998218232
1349442726438221326,60182,1349442726438742994,/world,vicon/auk/auk,0.000391077830301,-0.000216590328152,0.100094892686,0.000204011500087,-0.00141343721414,0.000177241540384,0.999998964579
1349442726448974983,60183,1349442726449045423,/world,vicon/auk/auk,0.000308653078493,-0.000229649300188,0.100027845149,8.96229948019e-05,-0.00147164315663,8.47805621982e-05,0.999998909523
1349442726458430801,60184,1349442726459035862,/world,vicon/auk/auk,0.000335195912814,-0.000154061569998,0.10004653199,0.000191777323777,-0.00112911230621,0.00022265250612,0.999999319376
1349442726468067603,60185,1349442726468780347,/world,vicon/auk/auk,0.000334536754911,-0.000199768947314,0.100040913259,3.31237200917e-05,-0.00100763506795,6.24731851878e-05,0.999999489836
1349442726478664792,60186,1349442726478962589,/world,vicon/auk/auk,0.000457132968671,-5.28622402582e-05,0.100016050804,0.000162415085769,-0.00142670217527,9.85262283881e-05,0.999998964217
1349442726488528444,60187,1349442726488972948,/world,vicon/auk/auk,0.000321434638353,-0.000127204872561,0.100070761335,-0.000244631943214,-0.000116529918623,8.31515183425e-06,0.999999963253
1349442726497494452,60188,1349442726498815526,/world,vicon/auk/auk,0.000357130928678,-0.000206332708627,0.100049976577,0.000122362747675,-0.00108436817382,0.000114493058162,0.999999398032
1349442726508521193,60189,1349442726509004165,/world,vicon/auk/auk,0.000409840598241,-0.000228205558762,0.100046396668,0.000112890284901,-0.00152017920599,0.000168785023629,0.999998823911
1349442726518696332,60190,1349442726518998352,/world,vicon/auk/auk,0.000400979759874,-0.000119279219853,0.100016151881,4.83238662655e-05,-0.00129268659172,-8.2646976526e-06,0.999999163279
1349442726528276893,60191,1349442726528960485,/world,vicon/auk/auk,0.00037009230512,-0.000166829226917,0.100035783835,-1.47163773502e-05,-0.00124771858103,0.000122452960486,0.999999213993
1349442726538575730,60192,1349442726539018488,/world,vicon/auk/auk,0.000384984494678,-0.000164291456276,0.100026331107,5.42733978956e-05,-0.00125764377894,-8.59205233302e-06,0.999999207656
1349442726548123952,60193,1349442726548795511,/world,vicon/auk/auk,0.000360020224551,-0.00023541146382,0.100065240479,0.0001828570526,-0.00146935636343,0.000162205326397,0.999998890622
1349442726558702860,60194,1349442726558946535,/world,vicon/auk/auk,0.000339431825435,-0.000268257770254,0.100080448314,0.000222334004206,-0.00157440421277,-8.92182916428e-06,0.999998735869
1349442726568418707,60195,1349442726569171206,/world,vicon/auk/auk,0.000378443100526,-0.000203551236922,0.100093578226,0.000120294991879,-0.00145367835808,0.000132747200201,0.999998927363
1349442726578302046,60196,1349442726578941053,/world,vicon/auk/auk,0.000200693654649,-0.000249514063257,0.1001618403,-4.34700563512e-05,-0.000412845614788,0.000156857824246,0.999999901532
1349442726588431655,60197,1349442726588915956,/world,vicon/auk/auk,0.000378848573725,-0.000212099014234,0.100039429461,9.55196178055e-05,-0.00136225713362,5.93884877573e-05,0.999999065802
1349442726598318547,60198,1349442726598964039,/world,vicon/auk/auk,0.000589405595538,-0.00035918262881,0.099983353079,-0.000204967470193,-0.000580119642493,-2.31298130207e-05,0.999999810457
1349442726608562557,60199,1349442726609000318,/world,vicon/auk/auk,0.000324716253988,-0.000203028735627,0.100038763332,-3.53161468561e-05,-0.00118038447587,6.57512247526e-05,0.999999300561
1349442726618393087,60200,1349442726619077146,/world,vicon/auk/auk,0.000425373518182,-0.000122865223697,0.0999492243652,1.55049621256e-05,-0.00155550473305,-4.21763815046e-05,0.999998789192
1349442726628506137,60201,1349442726629012628,/world,vicon/auk/auk,0.000359509804868,-0.000260198240936,0.100101237895,0.000119695551153,-0.00150285483914,0.000161510248928,0.999998850507
1349442726638416643,60202,1349442726638768127,/world,vicon/auk/auk,0.000382517423137,-0.000245312986101,0.100041545209,6.99606469997e-05,-0.00120346479343,7.15576770382e-05,0.999999270828
1349442726648307657,60203,1349442726648981817,/world,vicon/auk/auk,0.000386811455647,-0.000275625082102,0.100048673184,-2.34573906995e-05,-0.00143404865916,3.55410585477e-06,0.99999897147
1349442726658062276,60204,1349442726658828263,/world,vicon/auk/auk,0.000354462458997,-0.000125021678236,0.1000481351,-0.000123031809141,-0.00117887797643,-2.55059788371e-05,0.999999297229
1349442726668465664,60205,1349442726668876909,/world,vicon/auk/auk,0.00041644428068,-0.00023365638757,0.100051522312,-2.80784429419e-05,-0.00133442775956,2.05421549125e-05,0.999999109046
1349442726678145546,60206,1349442726678722989,/world,vicon/auk/auk,0.000357517280745,-0.000214201742575,0.100096839693,0.000183094679002,-0.0017801205461,0.000106070937448,0.999998393197
1349442726688300012,60207,1349442726688989072,/world,vicon/auk/auk,0.000352742357687,-0.000204857580138,0.100050067908,2.56333353261e-05,-0.00158092203719,6.56808971598e-05,0.999998747856
1349442726698383587,60208,1349442726699040939,/world,vicon/auk/auk,0.000419006820578,-0.000198619540449,0.100074729546,0.000118036156494,-0.0016149020065,0.000143597623787,0.999998678768
1349442726708001799,60209,1349442726708963393,/world,vicon/auk/auk,0.000419985449025,-0.000185373902538,0.0999816591994,4.89534035613e-05,-0.00157777664514,5.17257553874e-05,0.999998752774
1349442726718283937,60210,1349442726718983692,/world,vicon/auk/auk,0.000269641397356,-7.66325326073e-05,0.100067110193,-2.49295462793e-05,-0.000283670263876,9.90326513954e-05,0.999999954551
1349442726728481920,60211,1349442726728961207,/world,vicon/auk/auk,0.000395058236616,-0.000227299466028,0.0999931207016,-4.35049972746e-05,-0.00125569780902,-3.32844280502e-05,0.999999210111
1349442726738237089,60212,1349442726738788555,/world,vicon/auk/auk,0.000223794576177,-0.000165190593595,0.100117485081,3.38050003674e-05,-0.000333300047626,0.00023917085364,0.999999915283
1349442726748204446,60213,1349442726748786678,/world,vicon/auk/auk,0.00040999787667,-0.000170299110953,0.100028858089,0.000144356046726,-0.00152372126683,7.63029064594e-05,0.999998825806
1349442726758978354,60214,1349442726758901279,/world,vicon/auk/auk,0.000425435351475,-8.39795158959e-05,0.100039319031,0.000103555577565,-0.00167794330618,8.94406265902e-05,0.99999858289
1349442726768422583,60215,1349442726768880110,/world,vicon/auk/auk,0.00037949532262,-0.00020210920836,0.0999420471539,-0.000329520595986,-0.000972113701429,0.000118537904986,0.99999946618
1349442726778127334,60216,1349442726778800201,/world,vicon/auk/auk,0.000429673232752,-9.20082556102e-05,0.100032137268,3.76317204111e-06,-0.00135860604356,-2.11825958858e-06,0.999999077085
1349442726788554323,60217,1349442726788980577,/world,vicon/auk/auk,0.000427451610654,-0.000205036916606,0.0999722916052,3.7050445394e-05,-0.00135574338514,3.70156271475e-05,0.999999079608
1349442726798095152,60218,1349442726798769449,/world,vicon/auk/auk,0.000418388561941,-0.000254439979479,0.0999963355603,0.000131359933228,-0.00156271998903,0.000131900132795,0.999998761626
1349442726809055255,60219,1349442726808986155,/world,vicon/auk/auk,0.000401552038268,-0.000282451496908,0.100082166307,-1.86036054141e-06,-0.0013053041883,-1.63424219622e-05,0.999999147955
1349442726818275220,60220,1349442726819001453,/world,vicon/auk/auk,-8.44337049456e-05,-0.000232239788818,0.100047859317,-0.000167825751113,-0.00113909895371,-0.00120317510033,0.999998613328
1349442726828534109,60221,1349442726828900642,/world,vicon/auk/auk,0.000169854100734,-0.000208749711238,0.100172132965,0.000159049693459,-0.00041367079201,0.000202188578457,0.99999988135
1349442726838550002,60222,1349442726838618494,/world,vicon/auk/auk,0.000361373989828,-0.000176245442246,0.0999826987045,-3.65417657077e-05,-0.00127783966386,-2.80696332328e-05,0.999999182501
1349442726848479927,60223,1349442726848956311,/world,vicon/auk/auk,0.000374259180929,-0.000242022916896,0.100057615758,-3.57767499813e-05,-0.00133403720759,1.16227643528e-05,0.999999109464
1349442726858150376,60224,1349442726858856735,/world,vicon/auk/auk,0.000454162720217,-4.07817807885e-05,0.0999798581677,-1.93472708566e-05,-0.00100292934348,5.50998603322e-06,0.999999496864
1349442726868473935,60225,1349442726869012868,/world,vicon/auk/auk,0.000352200748378,-0.000104726486264,0.0999650550956,-0.000108616960522,-0.00129749216527,0.000105102216216,0.999999146835
1349442726878656057,60226,1349442726879081938,/world,vicon/auk/auk,0.000348282700922,-0.000190792617057,0.100084592123,4.74083708906e-05,-0.00129855903966,2.09013789855e-05,0.99999915553
1349442726887983584,60227,1349442726888698073,/world,vicon/auk/auk,0.000428812004171,-9.56178389383e-05,0.0999359821771,-1.59264903168e-05,-0.00119251454435,-7.51238230102e-05,0.999999286006
1349442726898113256,60228,1349442726898734630,/world,vicon/auk/auk,0.00036854707719,-0.000231194327223,0.100072806171,2.95757465915e-05,-0.00138821655452,8.25409596417e-05,0.999999032583
1349442726908173220,60229,1349442726908918723,/world,vicon/auk/auk,0.000361253992326,-0.000258998753947,0.100033318361,3.3822188852e-05,-0.00128147998807,5.66295622723e-05,0.999999176729
1349442726918545741,60230,1349442726918918315,/world,vicon/auk/auk,0.00040687086468,-0.000240652819196,0.0999978139932,-8.48085265294e-05,-0.00102091923335,3.67069716484e-05,0.999999474592
1349442726928333601,60231,1349442726929085339,/world,vicon/auk/auk,0.000448160383489,-0.000142803661446,0.099970098379,-0.00017742362269,-0.00123794347984,2.72463757505e-05,0.999999217637
1349442726938375757,60232,1349442726939033923,/world,vicon/auk/auk,0.000270528297417,-0.00017163337135,0.10009847738,-0.000252668766611,-0.000244746903466,0.000201247811079,0.999999917878
1349442726948769579,60233,1349442726948955664,/world,vicon/auk/auk,0.000415171132932,-0.000108560022369,0.100014503799,6.04506372362e-05,-0.00139891474673,-5.48609620098e-05,0.999999018186
1349442726958194113,60234,1349442726958926755,/world,vicon/auk/auk,0.000214330962281,-0.000231322224277,0.100149302525,-0.000118827307608,-0.000207220643113,0.000107109477748,0.999999965734
1349442726968439930,60235,1349442726969001939,/world,vicon/auk/auk,0.000390367707805,-0.000239560049405,0.100066343287,-5.73325771525e-05,-0.00153479589162,5.8589704523e-05,0.99999881884
1349442726978961980,60236,1349442726979141085,/world,vicon/auk/auk,0.000378533622392,-0.000181660540896,0.100024234035,4.91056807412e-05,-0.00127779365231,1.73651621295e-05,0.999999182265
1349442726987915924,60237,1349442726988860594,/world,vicon/auk/auk,0.000472278728294,-0.000128818023554,0.0999761758487,-0.000162046798672,-0.00115706867536,0.000119576559373,0.999999310317
1349442726998426230,60238,1349442726999048258,/world,vicon/auk/auk,0.000417963569448,-0.000133130550601,0.100000172919,-4.94970662798e-05,-0.00149526824837,-5.24359489407e-05,0.999998879486
1349442727008092362,60239,1349442727008768940,/world,vicon/auk/auk,0.000415241102267,-0.000249313943781,0.100043145275,-1.77376967009e-05,-0.00146094143082,6.14807757389e-05,0.999998930777
1349442727018376175,60240,1349442727019007265,/world,vicon/auk/auk,0.000434137062854,-6.75193227658e-05,0.10001204372,0.00018857526732,-0.00158062114567,0.000117354586746,0.999998726151
1349442727027965540,60241,1349442727028883066,/world,vicon/auk/auk,0.000217964303558,-0.000197033679792,0.100136852347,0.000119591556524,-0.000489876102359,0.000196498215536,0.999999853554
1349442727038540393,60242,1349442727038906954,/world,vicon/auk/auk,0.000411070052575,3.87298336649e-05,0.100016120376,-9.0542487972e-05,-0.00117545879197,0.000109953700501,0.999999299004
1349442727050390502,60243,1349442727049045865,/world,vicon/auk/auk,0.000264580035939,-9.9441136634e-05,0.100067978658,-8.47543080106e-05,-0.000123705463133,5.77714987429e-05,0.999999987088
1349442727058200833,60244,1349442727058792603,/world,vicon/auk/auk,0.000345189846236,-0.000196675467953,0.100031854792,1.99067118074e-05,-0.00138298132681,0.000130986269074,0.999999034904
1349442727068307591,60245,1349442727068995064,/world,vicon/auk/auk,0.000356041587577,-0.000206967767269,0.100074717748,4.26940523184e-05,-0.00137858395686,9.82138806668e-05,0.999999044018
1349442727078291362,60246,1349442727078925799,/world,vicon/auk/auk,0.000362068244827,-0.000209924017229,0.100071787007,4.19023302735e-05,-0.00147647009069,7.18262193329e-05,0.99999890656
1349442727088501560,60247,1349442727088957566,/world,vicon/auk/auk,0.000429659396167,-0.000112898977184,0.09995477583,-9.10470403815e-05,-0.00104739670293,-1.11425696526e-05,0.999999447273
1349442727098774342,60248,1349442727098931756,/world,vicon/auk/auk,0.000228216893851,-0.000217856666706,0.100168243558,0.000155058213464,-0.000476255786925,0.000185090547493,0.999999857439
1349442727108710338,60249,1349442727109010059,/world,vicon/auk/auk,0.00018461835994,-0.000194970813515,0.100092076273,-0.000104487411935,-3.38054839275e-05,0.000163158947718,0.999999980659
1349442727118153379,60250,1349442727118939407,/world,vicon/auk/auk,0.000337169355003,-0.000154804171849,0.100056128901,7.23400793663e-05,-0.00137104141686,4.6722625005e-05,0.999999056414
1349442727128743671,60251,1349442727129149762,/world,vicon/auk/auk,0.000368351439657,-0.000193869848356,0.100069282233,0.000233490877455,-0.00158658997828,0.000119050810994,0.99999870702
1349442727138845115,60252,1349442727138845056,/world,vicon/auk/auk,0.000225368145183,-0.000201824137618,0.100131851118,-0.000179542136118,-2.27722462727e-05,0.000151055312881,0.999999972214
1349442727148443574,60253,1349442727148899273,/world,vicon/auk/auk,0.00032528188557,-0.000154635576569,0.100063364408,0.000237006240781,-0.00119101884128,0.000152951057559,0.999999250954
1349442727158299591,60254,1349442727158965958,/world,vicon/auk/auk,0.000442422896487,-7.66555111321e-05,0.0999858079789,9.09358756244e-05,-0.00149113861282,4.49617722197e-05,0.999998883107
1349442727168018102,60255,1349442727168802986,/world,vicon/auk/auk,0.000410149695996,-6.87314014582e-05,0.0999710370763,2.29274189848e-05,-0.00100197723444,-0.000128165264402,0.999999489545
1349442727178871555,60256,1349442727178997596,/world,vicon/auk/auk,0.000373900326706,-0.000230187314846,0.100076074127,1.85761902176e-05,-0.0013257021065,5.10614055448e-05,0.99999911978
1349442727188284564,60257,1349442727189008060,/world,vicon/auk/auk,0.000445609647145,-7.80663182144e-05,0.0999948310455,-8.89932524212e-05,-0.00119184717455,0.000132711608819,0.999999276984
1349442727198312476,60258,1349442727198894211,/world,vicon/auk/auk,0.000466085582984,-6.29622721997e-05,0.0999811775456,-2.03259010642e-05,-0.00125612557169,-1.20606398928e-05,0.999999210795
1349442727208470992,60259,1349442727209052302,/world,vicon/auk/auk,0.000348928418265,-0.000239742264029,0.100075854774,1.2100391968e-05,-0.00135594873778,5.64909774537e-05,0.999999079032
1349442727218304180,60260,1349442727218866142,/world,vicon/auk/auk,0.000298397600006,-8.18772231707e-05,0.100053979979,-0.000207515548482,-0.000317947430683,8.23156729476e-05,0.999999924535
1349442727228453615,60261,1349442727228990322,/world,vicon/auk/auk,0.00034087624704,-0.000243107555259,0.100032128817,-0.000154608035831,-0.00100062358563,3.64195341835e-05,0.999999486761
1349442727238484109,60262,1349442727239111791,/world,vicon/auk/auk,0.000372417633425,-0.00016457316418,0.10008604941,4.82335763398e-06,-0.00136302591696,0.000148486385793,0.999999060044
1349442727247770705,60263,1349442727248722755,/world,vicon/auk/auk,0.000389390425068,-0.000249481591591,0.100004941264,2.72317254381e-05,-0.0014641085792,6.40068549096e-05,0.999998925773
1349442727258540347,60264,1349442727258793151,/world,vicon/auk/auk,0.000220590818156,-0.000112864420918,0.100133506379,0.000187520452576,-0.000635918651912,0.000348168030245,0.999999719611
1349442727268281627,60265,1349442727268980987,/world,vicon/auk/auk,0.000349818402479,-0.000243008761508,0.100082326107,7.11196671437e-05,-0.00146032731317,0.000161290274918,0.999998918185
1349442727278347941,60266,1349442727278969465,/world,vicon/auk/auk,0.000336494604137,-0.000183441562414,0.100050445862,0.000230841663254,-0.00136488369457,0.000118172460734,0.999999034919
1349442727288726195,60267,1349442727289006762,/world,vicon/auk/auk,0.0003860665884,-0.000212217095481,0.100144438629,0.000154188008222,-0.00151817846696,0.000144929840608,0.999998825177
1349442727298228946,60268,1349442727298950046,/world,vicon/auk/auk,0.00041728511533,-0.000102170130295,0.100018420241,0.000226660846583,-0.00179172864517,9.90135617092e-07,0.999998369165
1349442727308178428,60269,1349442727308983700,/world,vicon/auk/auk,0.000324834051714,-0.000171060811192,0.100117536307,0.000356109253601,-0.00162035918589,5.18690179242e-05,0.999998622465
1349442727318615339,60270,1349442727318987082,/world,vicon/auk/auk,0.000345073194509,-0.00027411390333,0.100070225304,0.000155741043109,-0.00163027261118,0.000126093901852,0.999998651027
1349442727328456971,60271,1349442727328889656,/world,vicon/auk/auk,0.0003373941434,-0.000196204359906,0.10011672106,0.00024823739283,-0.00182245666351,3.32921130486e-05,0.999998307959
1349442727338387386,60272,1349442727338919659,/world,vicon/auk/auk,0.000378911603378,-0.000195808845015,0.100075703152,0.000142201019038,-0.00151230435989,3.07205770575e-05,0.999998845885
1349442727348193753,60273,1349442727348856414,/world,vicon/auk/auk,0.000439440457561,-0.000138498415359,0.0999687233963,-0.000234403866868,-0.00107694597403,-5.1437343334e-05,0.999999391298
1349442727358274390,60274,1349442727358979235,/world,vicon/auk/auk,0.000381495394998,-0.000109317609946,0.0999459006571,9.05216359847e-06,-0.00119007357548,7.63538240575e-05,0.999999288906
1349442727368305453,60275,1349442727369042651,/world,vicon/auk/auk,0.000415821186766,-0.000122831572332,0.0999685146408,5.51756410524e-05,-0.00122468791467,4.34383317368e-05,0.999999247604
1349442727378125011,60276,1349442727378899754,/world,vicon/auk/auk,0.000381319419994,-0.000168280032635,0.100034468507,3.20865094429e-05,-0.00140671980312,0.000115037866649,0.999999003438
1349442727388521698,60277,1349442727389010181,/world,vicon/auk/auk,0.000389637895141,-0.000223659729625,0.100053796328,0.000146281580774,-0.00165006110539,4.26921089105e-05,0.999998627038
1349442727398345037,60278,1349442727398980388,/world,vicon/auk/auk,0.000342158225926,-0.000191286870736,0.100071554042,0.000126654374626,-0.00112488296252,1.07177671583e-05,0.999999359241
1349442727408030852,60279,1349442727408765024,/world,vicon/auk/auk,0.00042854603216,-0.000147819431329,0.0999513547244,-0.000168917087203,-0.0010874428635,-9.46201849688e-05,0.999999389991
1349442727418255025,60280,1349442727418746803,/world,vicon/auk/auk,0.00035037344822,-0.000182177990702,0.100071601416,4.02072134773e-05,-0.00137489429488,7.65787967896e-05,0.999999051092
1349442727428014663,60281,1349442727428571126,/world,vicon/auk/auk,0.00038207881867,-0.000255217499804,0.100011089218,-5.82816357087e-05,-0.0010320803436,8.36066766132e-05,0.999999462212
1349442727438033639,60282,1349442727438896592,/world,vicon/auk/auk,0.000429744140946,-9.10434551323e-05,0.100049333696,-7.10409855406e-06,-0.00112102479347,1.41572770597e-05,0.999999371526
1349442727450373408,60283,1349442727449022336,/world,vicon/auk/auk,0.000371672543651,-0.000218416330208,0.100092000101,0.000145503699334,-0.00162115324745,0.000135628210452,0.999998666147
1349442727458562228,60284,1349442727459115549,/world,vicon/auk/auk,0.000313197634244,-0.000259170196824,0.100078529334,1.21286655536e-05,-0.00135956325129,1.67494397174e-05,0.99999907558
1349442727468126089,60285,1349442727468902977,/world,vicon/auk/auk,0.000346697737554,-0.00023300186558,0.10000539064,0.000137084883615,-0.00150102860351,2.34157187625e-06,0.999998864057
1349442727478657159,60286,1349442727479012363,/world,vicon/auk/auk,0.000472322659991,-8.52145204582e-05,0.1000378566,-1.5212102169e-05,-0.00118238917471,-5.60717597246e-05,0.99999929929
1349442727488210412,60287,1349442727488810444,/world,vicon/auk/auk,0.00039083148294,-0.000221884402362,0.100076891324,0.000114800874213,-0.00164307186617,0.000104974843735,0.999998638057
1349442727498201093,60288,1349442727498826616,/world,vicon/auk/auk,0.000277675363727,-9.42310695966e-05,0.100065280009,-8.89353221224e-06,-0.000470634179216,0.000187635601726,0.999999871609
1349442727508217548,60289,1349442727508868263,/world,vicon/auk/auk,0.000421076295923,-4.75756197336e-05,0.100000346719,6.75174877274e-05,-0.0011500180236,7.87753369206e-05,0.999999333347
1349442727518389619,60290,1349442727518994677,/world,vicon/auk/auk,0.000391244083878,-0.00022486457379,0.100047969295,-4.03776309462e-05,-0.00127291954348,8.99705752486e-05,0.999999184975
1349442727528405092,60291,1349442727529034048,/world,vicon/auk/auk,0.000451511838498,-6.29975809863e-05,0.0999744228282,5.54295866194e-05,-0.000985405055988,0.000108099695142,0.999999507109
1349442727538437757,60292,1349442727538738714,/world,vicon/auk/auk,0.000369130682783,-0.000235867334293,0.100006509924,-2.71918022042e-05,-0.00118711496276,-1.95097251578e-05,0.999999294819
1349442727548816338,60293,1349442727548999644,/world,vicon/auk/auk,0.000395694055473,-0.000106134206303,0.100032265699,-8.80172633414e-06,-0.00134185574986,-6.5190188475e-05,0.999999097548
1349442727558011169,60294,1349442727558844710,/world,vicon/auk/auk,0.000366279680368,-0.000252338962884,0.100095294146,0.000149166016635,-0.00167854339603,0.000145300919474,0.999998569564
1349442727568741768,60295,1349442727569196577,/world,vicon/auk/auk,0.000376051506539,-0.000224617048092,0.100039423395,-0.000151901081618,-0.000992130293157,3.23401419739e-05,0.999999495779
1349442727578208067,60296,1349442727578950274,/world,vicon/auk/auk,0.000366223774409,-0.000188381513429,0.100089352159,0.000248829765286,-0.0014410465851,0.000124310091633,0.999998923007
1349442727588298634,60297,1349442727588886147,/world,vicon/auk/auk,0.000361520889005,-0.000190144274282,0.100022186103,0.000168425066889,-0.001341294679,0.000101207978605,0.999999081159
1349442727598546889,60298,1349442727599100941,/world,vicon/auk/auk,0.000247183832842,-0.000233067054648,0.100126451513,2.59467359616e-05,-0.000328065784912,0.000229226286979,0.999999919577
1349442727608562025,60299,1349442727608894561,/world,vicon/auk/auk,0.000357940184731,-0.00024052413272,0.100065342097,0.000112379803017,-0.00150996525993,7.47676967004e-06,0.999998853659
1349442727618293592,60300,1349442727619058988,/world,vicon/auk/auk,0.000512495875564,-0.000245837744112,0.100100615218,-4.70981319619e-05,-0.00052514764582,7.0043432556e-05,0.999999858548
1349442727628525784,60301,1349442727629110578,/world,vicon/auk/auk,0.000371442729834,-0.000214028978803,0.100048070589,0.00015944229208,-0.00153174734204,7.53551235224e-05,0.999998811324
1349442727638041056,60302,1349442727638880917,/world,vicon/auk/auk,0.000421044718848,-0.000188961941614,0.100004526132,0.000174971900626,-0.00152713501949,4.76881222091e-05,0.999998817484
1349442727648216887,60303,1349442727648975154,/world,vicon/auk/auk,0.00030756892022,-0.000257240386491,0.100090697854,1.07007852676e-05,-0.00115513652336,0.000103905562584,0.999999327374
1349442727657877777,60304,1349442727658854523,/world,vicon/auk/auk,0.000343213524685,-0.000230245383002,0.10008299701,6.36304247554e-05,-0.00138711528643,0.000176864013845,0.99999902029
1349442727668047119,60305,1349442727668801559,/world,vicon/auk/auk,0.000408951713733,-0.00016647973203,0.100008206864,4.73658396332e-05,-0.00134539707701,7.61966209869e-05,0.999999090928
1349442727678587534,60306,1349442727678948099,/world,vicon/auk/auk,0.000408773388723,-0.000166573715268,0.100011598777,-9.16126564181e-05,-0.00133587166879,5.77715415917e-05,0.999999101858
1349442727688427776,60307,1349442727689135945,/world,vicon/auk/auk,0.000358775503085,-0.000180224887276,0.100031352851,0.000138669151798,-0.00111177268549,0.000114799310718,0.999999365777
1349442727698154590,60308,1349442727699004395,/world,vicon/auk/auk,0.00041564462923,-6.16458775434e-05,0.0999342956755,-3.8745766909e-06,-0.00119751484368,-3.86231055341e-05,0.999999282225
1349442727708193889,60309,1349442727708985288,/world,vicon/auk/auk,0.000344051851901,-0.000141498338659,0.0999984174627,0.000115395692708,-0.00125954071587,2.56065123135e-05,0.999999199792
1349442727718321116,60310,1349442727719011185,/world,vicon/auk/auk,0.000650175021515,-0.000205260328301,0.100319369621,-0.000416043000012,-0.00185363538622,0.000438734465039,0.999998099226
1349442727728186427,60311,1349442727728801451,/world,vicon/auk/auk,0.000460120374688,-6.40664553369e-05,0.0999551849391,4.34773299077e-05,-0.00111588502018,3.99382607507e-06,0.999999376447
1349442727738316663,60312,1349442727738884114,/world,vicon/auk/auk,0.0003565091994,-0.00016987534763,0.100067182955,2.7210314455e-05,-0.00135330346511,4.66230655395e-05,0.999999082827
1349442727748084888,60313,1349442727748682286,/world,vicon/auk/auk,0.000445402962158,-9.15245726792e-05,0.100000877921,-9.56015844941e-05,-0.00117727274091,3.0057049275e-05,0.999999301993
1349442727758703884,60314,1349442727758958127,/world,vicon/auk/auk,0.000208712909711,-0.00025068059335,0.100165441578,0.000138595112562,-0.000514834861363,0.000126821686142,0.999999849826
1349442727768268939,60315,1349442727768897844,/world,vicon/auk/auk,0.000488596418391,-8.2590940925e-05,0.0999489665782,-5.19878440671e-05,-0.00119473044551,9.56999749984e-05,0.999999280379
1349442727778362157,60316,1349442727779056467,/world,vicon/auk/auk,0.00021918741318,-0.000214092612957,0.100133866995,-2.35301401288e-05,-8.25519564417e-05,0.000146633518209,0.999999985565
1349442727788555180,60317,1349442727788942229,/world,vicon/auk/auk,0.000364005078859,-0.000286888711133,0.100056924979,-0.00016075856061,-0.00106270005837,9.00937021937e-05,0.999999418354
1349442727798215853,60318,1349442727798935889,/world,vicon/auk/auk,0.000409361842233,-0.000212580257857,0.100022397429,-0.000106092802511,-0.0013559812428,-3.94072258478e-05,0.999999074253
1349442727808133623,60319,1349442727809002874,/world,vicon/auk/auk,0.000330053413801,-0.000235324121402,0.100020531168,2.99537175338e-05,-0.00130225181691,4.0386383442e-05,0.999999150806
1349442727818346890,60320,1349442727818876058,/world,vicon/auk/auk,0.000366333011585,-0.000235103620217,0.100057173302,-1.61223525204e-06,-0.00142387775241,7.82754377784e-05,0.999998983221
1349442727828433122,60321,1349442727829010465,/world,vicon/auk/auk,0.000403769201031,-0.000200360446041,0.100049241807,-6.51443356023e-06,-0.00130343329406,0.000195820855444,0.999999131336
1349442727838085068,60322,1349442727838824638,/world,vicon/auk/auk,0.000168824630695,-0.000267841844912,0.100057601708,-3.96885779553e-05,-0.000180438628623,0.000127342810866,0.999999974825
1349442727848618358,60323,1349442727849007835,/world,vicon/auk/auk,0.000425147919045,-7.96882853774e-05,0.0999863989154,3.88239784443e-05,-0.00122021321168,0.000122633268909,0.999999247266
1349442727858109181,60324,1349442727858910362,/world,vicon/auk/auk,0.000174240368098,-0.000245730951045,0.100156518383,-0.000135668880336,-6.51243110447e-05,9.43877070629e-05,0.999999984222
1349442727868220479,60325,1349442727868882062,/world,vicon/auk/auk,0.000338216741526,-0.000196585229169,0.100045783764,0.000141063166581,-0.00141007175764,0.000187877886425,0.99999897825
1349442727878654179,60326,1349442727879055426,/world,vicon/auk/auk,0.000278950948601,-5.07386694858e-05,0.100090889825,6.8318205505e-05,-0.000375826109225,0.000277019020384,0.999999888674
1349442727888215604,60327,1349442727888920919,/world,vicon/auk/auk,0.000409614626676,-0.000217206255299,0.100002933132,0.000103121869531,-0.00133001989598,7.58291899901e-05,0.999999107331
1349442727897857078,60328,1349442727898843026,/world,vicon/auk/auk,0.000343793915791,-0.000211523563578,0.100100374476,0.000112783756401,-0.00148977216286,6.60722443897e-05,0.999998881746
1349442727908106099,60329,1349442727908886042,/world,vicon/auk/auk,0.000391471765492,-9.41436094186e-05,0.09997646017,-9.18427163714e-05,-0.00121797245892,5.16917577651e-05,0.999999252718
1349442727918282091,60330,1349442727918770925,/world,vicon/auk/auk,0.000165157658625,-0.000203579755377,0.100136976262,6.57787703813e-05,-0.000366171731338,0.00018359590501,0.999999913942
1349442727928154303,60331,1349442727928783134,/world,vicon/auk/auk,0.000375830486725,-0.000171945892086,0.100043181865,4.87611302593e-05,-0.00140817051873,0.000119669748243,0.999999000178
1349442727938131877,60332,1349442727938833403,/world,vicon/auk/auk,0.000335877300126,-0.000180655608136,0.100049500072,0.000122674583401,-0.00125616016751,7.65319298243e-05,0.999999200577
1349442727948322085,60333,1349442727949001398,/world,vicon/auk/auk,0.000341500358494,-0.000273300162868,0.100056179436,4.9070005872e-05,-0.00134174957364,9.03785926992e-05,0.999999094566
1349442727958622256,60334,1349442727959039426,/world,vicon/auk/auk,0.000591354854355,-0.000312134945452,0.100056668851,-2.61524835605e-05,-0.000362534713051,0.000192728414869,0.99999991537
1349442727968099024,60335,1349442727968959206,/world,vicon/auk/auk,0.00037596373477,-0.000198736509193,0.100038062148,0.000107953306991,-0.00127751946297,0.000195632841892,0.999999159009
1349442727978016374,60336,1349442727978895486,/world,vicon/auk/auk,0.000360776516985,-0.000166539286249,0.1000596051,0.000188259431969,-0.00144861319264,-4.6291470008e-06,0.999998933028
1349442727988220578,60337,1349442727988967684,/world,vicon/auk/auk,0.000379031116228,-0.000224641157982,0.100015142248,0.000111932547831,-0.00161156849736,0.000154604843221,0.999998683207
1349442727997828577,60338,1349442727998827919,/world,vicon/auk/auk,0.000350982061739,-0.000224129823754,0.0999934433164,-2.71219151778e-05,-0.00126556168873,3.75436832728e-05,0.999999198104
1349442728008423620,60339,1349442728008989269,/world,vicon/auk/auk,0.000353054805754,-0.000214801097321,0.100041406972,0.000139479793926,-0.00150662193643,2.56207198057e-05,0.999998854989
1349442728018242699,60340,1349442728018927228,/world,vicon/auk/auk,0.000348041098764,-0.000249841693919,0.100025275911,3.00763719034e-05,-0.00127558470649,2.02837395911e-05,0.999999185783
1349442728028205026,60341,1349442728029056291,/world,vicon/auk/auk,0.000380498445473,-0.000200557399554,0.100029023876,0.000218495561909,-0.00151505827261,0.000182011183479,0.999998811864
1349442728038195360,60342,1349442728038932693,/world,vicon/auk/auk,0.000361031846287,-0.000209164172021,0.100027290362,9.27189462409e-05,-0.00137732642153,6.70761052404e-05,0.999999044938
1349442728048266220,60343,1349442728049066021,/world,vicon/auk/auk,0.000349880626634,-0.000261711853848,0.100079702676,2.00635803918e-05,-0.00133229626736,1.48832553452e-05,0.999999112181
1349442728058296576,60344,1349442728059110646,/world,vicon/auk/auk,0.000346250648179,-0.000248269395501,0.100023809859,8.3431560263e-05,-0.00142857679583,0.000236035609822,0.999998948247
1349442728068321969,60345,1349442728068828640,/world,vicon/auk/auk,0.000406429736748,-0.000222669550282,0.100022888179,8.59779518959e-05,-0.00144590519374,7.44311050265e-05,0.999998948212
1349442728078370133,60346,1349442728078997406,/world,vicon/auk/auk,0.000314072139989,-0.000222965605968,0.100139016732,0.000239637114931,-0.00163438006108,5.89104548336e-05,0.999998633952
1349442728088020961,60347,1349442728088831837,/world,vicon/auk/auk,0.000372144753161,-0.000156131569613,0.100070615056,0.000108523963725,-0.00160844399224,0.000111678120092,0.999998694328
1349442728098692749,60348,1349442728099021950,/world,vicon/auk/auk,0.000386692336147,-0.000189616569484,0.100030650032,3.39742352304e-05,-0.00153312195061,1.03328311184e-05,0.999998824137
1349442728108617296,60349,1349442728109137117,/world,vicon/auk/auk,0.000390532070003,-0.000200872538848,0.100011648646,8.81346334023e-05,-0.00152298120644,4.09995526679e-05,0.999998835539
1349442728118275312,60350,1349442728119017343,/world,vicon/auk/auk,0.00043764225199,-0.000156222321883,0.0999607028787,-6.39455718883e-05,-0.00115481601354,-5.49709309868e-05,0.999999329644
1349442728128019663,60351,1349442728128973114,/world,vicon/auk/auk,0.000240710475449,-0.000209528823788,0.100176314065,-3.57538473688e-05,-0.000171927271058,0.000240014675739,0.999999955778
1349442728139437722,60352,1349442728139019308,/world,vicon/auk/auk,0.000369906727029,-0.000239064064788,0.100020840682,1.73465849623e-05,-0.00128525480423,-2.69407364809e-05,0.999999173546
1349442728147740722,60353,1349442728148821075,/world,vicon/auk/auk,0.000439850921342,-6.35239278014e-05,0.100014658434,2.66306415693e-05,-0.00153558841844,1.84083884827e-05,0.999998820459
1349442728157987239,60354,1349442728158827401,/world,vicon/auk/auk,0.000183181301114,-0.000205511129895,0.100122479352,0.000149124265516,-0.000448377986183,0.000157369068846,0.999999875977
1349442728168266651,60355,1349442728168739598,/world,vicon/auk/auk,0.000367389685837,-0.000230984381001,0.100098513569,0.000142537164375,-0.00164778469346,0.000117846162759,0.9999986253
1349442728178320823,60356,1349442728178963520,/world,vicon/auk/auk,0.00037153920606,-0.000233719263716,0.100072712966,0.000150076597285,-0.00131676974399,6.38650584125e-05,0.999999119757
1349442728188005101,60357,1349442728188918876,/world,vicon/auk/auk,0.000407525340343,-0.000171811897502,0.0999883192613,8.99894056095e-05,-0.00156219008428,0.000106374589748,0.999998770073
1349442728198290595,60358,1349442728199043548,/world,vicon/auk/auk,0.000362951537489,-0.000232498663001,0.100073475636,0.000195433871103,-0.00139814367114,0.000195059004275,0.999998984475
1349442728208379196,60359,1349442728208951938,/world,vicon/auk/auk,0.000364436671288,-0.000208428859693,0.100056245682,-3.47066549105e-05,-0.00132541586748,3.3291132457e-05,0.99999912048
1349442728218108595,60360,1349442728219021769,/world,vicon/auk/auk,0.00038675922733,-0.000209063685518,0.100040361328,0.000168945741148,-0.00166165826881,5.0895045542e-05,0.999998603878
1349442728228140769,60361,1349442728228924290,/world,vicon/auk/auk,0.000402189718713,-0.000175652193532,0.100043462545,2.69176442369e-05,-0.0011642324338,4.91765630518e-05,0.99999932071
1349442728238428908,60362,1349442728238934641,/world,vicon/auk/auk,0.000385197962125,-0.000109681364724,0.100010316924,-9.23866661064e-05,-0.00117959626108,-2.24773741909e-05,0.999999299756
1349442728248704063,60363,1349442728248968754,/world,vicon/auk/auk,0.000416543341359,-0.000248548347231,0.100032941965,0.000135129693224,-0.00158765311596,8.51536111348e-06,0.999998730512
1349442728258152206,60364,1349442728258837894,/world,vicon/auk/auk,0.000334928302264,-0.000211775963175,0.10005590307,6.70553437554e-05,-0.00133515808402,4.97120391197e-05,0.999999105192
1349442728268464791,60365,1349442728269029871,/world,vicon/auk/auk,0.000355935460817,-0.000270319959324,0.0999622184966,0.000119625798383,-0.00104992671109,-4.34769571022e-05,0.999999440727
1349442728278151105,60366,1349442728278931196,/world,vicon/auk/auk,0.000560150820742,-0.000347017095409,0.100044258791,0.000115918167176,-0.000332894951135,0.000292093896344,0.999999895213
1349442728288428349,60367,1349442728288992654,/world,vicon/auk/auk,0.000342718286599,-0.000222137888845,0.100041680502,-6.38465761107e-05,-0.00125277538504,9.05699825753e-05,0.999999209137
1349442728298069610,60368,1349442728298991271,/world,vicon/auk/auk,0.000315813984615,-0.000238443682777,0.100090115947,8.99078128756e-05,-0.00154226956409,1.21216287483e-05,0.999998806586
1349442728308441143,60369,1349442728309072414,/world,vicon/auk/auk,0.000329670651838,-0.000191981159192,0.100027361016,7.5868310553e-05,-0.00134780205376,3.21605153443e-05,0.999999088319
1349442728318645617,60370,1349442728319008283,/world,vicon/auk/auk,0.000545432152545,-0.000119372676116,0.0999378283418,4.8020580966e-05,-0.00130414455314,0.000155466102037,0.999999136365
1349442728328030413,60371,1349442728328886557,/world,vicon/auk/auk,0.000467752905026,-0.000135949484593,0.100022449274,0.000202581505025,-0.00125338599638,0.000283928924823,0.999999153684
1349442728338020324,60372,1349442728338967188,/world,vicon/auk/auk,0.000266451903246,-9.71522528919e-05,0.100120862367,-9.78921147038e-05,-0.000115635011984,0.000190755001521,0.999999970329
1349442728348405205,60373,1349442728348865949,/world,vicon/auk/auk,0.000427485848665,-8.82166489462e-05,0.0999635106368,-2.89134022148e-05,-0.00119516706673,-2.02265607975e-05,0.999999285165
1349442728358361662,60374,1349442728359028800,/world,vicon/auk/auk,0.000425878062007,-5.7181638962e-05,0.099989015782,3.27420591267e-05,-0.00117514122086,-7.71903999342e-07,0.999999308985
1349442728368534077,60375,1349442728369073075,/world,vicon/auk/auk,0.000390430696343,-0.00027579813654,0.100059595402,0.00014351488612,-0.00140606066084,6.68669144686e-05,0.999998998962
1349442728379046487,60376,1349442728379078591,/world,vicon/auk/auk,0.00042205252974,-5.58926320486e-05,0.0999492600293,9.70159418284e-05,-0.00185771340458,-0.000133794796828,0.999998260792
1349442728388375478,60377,1349442728389019042,/world,vicon/auk/auk,0.000400848681365,-0.000114006976595,0.100001992765,7.40743321091e-05,-0.001436768058,5.80428768105e-05,0.99999896342
1349442728398463871,60378,1349442728398963759,/world,vicon/auk/auk,0.000381180611282,-0.000231092584465,0.100066914268,0.000221427361379,-0.00160749252618,0.000129906125567,0.99999867503
1349442728408239294,60379,1349442728408750152,/world,vicon/auk/auk,0.00038965156852,-0.000214402296225,0.100044630843,9.48378306458e-05,-0.00127780971532,7.09001817882e-05,0.99999917659
1349442728418233195,60380,1349442728418863813,/world,vicon/auk/auk,0.000376737946046,-0.000191208446901,0.100018788391,3.99024769463e-05,-0.00127118700097,6.74273560923e-05,0.999999188972
1349442728428100741,60381,1349442728428879833,/world,vicon/auk/auk,0.000369157926593,-0.000211255363797,0.100089008226,0.000131874845843,-0.00164756903765,6.45942540895e-05,0.999998631976
1349442728438108254,60382,1349442728438934212,/world,vicon/auk/auk,0.000422472910993,-0.000131999951126,0.0999964151775,-0.000139629914636,-0.00118247772757,-2.25036779693e-06,0.999999291122
1349442728448612706,60383,1349442728448994292,/world,vicon/auk/auk,0.000335391124535,-0.000224291227078,0.100054406402,2.48477864639e-05,-0.00155197701556,1.09637034094e-05,0.999998795314
1349442728458217923,60384,1349442728459086844,/world,vicon/auk/auk,0.00031542870411,-0.000215390219407,0.100087279072,0.00010031073089,-0.00151248207471,6.82979667433e-05,0.999998848835
1349442728468399627,60385,1349442728469056993,/world,vicon/auk/auk,0.000402617916521,-0.00022064158526,0.100035392304,-4.95317230284e-05,-0.00114210786872,8.7862429027e-05,0.999999342708
1349442728478416780,60386,1349442728479081247,/world,vicon/auk/auk,0.000344335493752,-0.000212105825652,0.100060755624,0.000234459164148,-0.0017044079449,3.55001501364e-05,0.99999851938
1349442728487842641,60387,1349442728488877707,/world,vicon/auk/auk,0.000350766964849,-0.000199753067084,0.100073720458,0.000129307410719,-0.00138186871056,4.52515130083e-05,0.999999035835
1349442728497839263,60388,1349442728498843962,/world,vicon/auk/auk,0.000438890613778,-0.000194066590773,0.099989246868,2.04977450951e-05,-0.00147339667786,2.91183123059e-05,0.999998913917
1349442728508388269,60389,1349442728508776016,/world,vicon/auk/auk,0.000234777906045,-0.000199176132536,0.100150059124,-0.000145528227242,-0.000316621455,0.000148976038861,0.999999928189
1349442728519114747,60390,1349442728519128840,/world,vicon/auk/auk,0.000379849360143,-0.000201077736688,0.100120186525,0.000150171701681,-0.00153014579012,0.000229028068122,0.999998791824
1349442728528208091,60391,1349442728528971837,/world,vicon/auk/auk,0.000430099137918,-5.37053626872e-05,0.100020194917,0.000162358166041,-0.00139225098728,8.30738219044e-05,0.999999014187
1349442728538289146,60392,1349442728538875280,/world,vicon/auk/auk,0.000218307229859,-0.000211847501141,0.100082228001,-0.000118895645721,-0.000138408392989,0.000128849597371,0.999999975052
1349442728550477787,60393,1349442728548925590,/world,vicon/auk/auk,0.000388291012987,-0.000214202636305,0.0999952815009,3.43679996853e-05,-0.00145174161255,2.43940020775e-05,0.999998945334
1349442728558210378,60394,1349442728559127735,/world,vicon/auk/auk,0.000383563591037,-0.000201228885875,0.100026666126,0.000314718861899,-0.0016815363778,0.000159861033697,0.999998523915
1349442728568656785,60395,1349442728568994043,/world,vicon/auk/auk,0.000315456890258,-0.000290446011295,0.100037459931,3.54484278006e-05,-0.00119541788697,7.05301743839e-05,0.999999282372
1349442728578453794,60396,1349442728579072938,/world,vicon/auk/auk,0.000459040604646,-9.07561662214e-05,0.0999948046184,-5.71313849857e-05,-0.00138984730313,7.82871581974e-05,0.999999029465
1349442728588311778,60397,1349442728588982859,/world,vicon/auk/auk,0.000230249766462,-0.000226446573155,0.10012054349,6.56940658999e-05,-0.00056742969207,0.000194697242126,0.9999998179
1349442728598116041,60398,1349442728598794639,/world,vicon/auk/auk,0.000398299657363,-0.000214129974654,0.100023702872,-0.000153415112926,-0.00102907603717,4.59739948066e-05,0.999999457676
1349442728608484509,60399,1349442728608992222,/world,vicon/auk/auk,0.000431469861785,-0.000154176052814,0.100015666488,-2.40135084614e-05,-0.00150761719549,2.83582467481e-05,0.999998862854
1349442728618261264,60400,1349442728618957604,/world,vicon/auk/auk,0.000249288290596,-0.000229906781641,0.100177919938,4.26426005031e-05,-0.000594531563547,7.67394785113e-05,0.999999819412
1349442728628577691,60401,1349442728629059551,/world,vicon/auk/auk,0.000408997259203,-0.000202286069122,0.100017684735,3.57128924888e-05,-0.00123691331067,0.000146340898836,0.999999223677
1349442728638478627,60402,1349442728639031089,/world,vicon/auk/auk,0.000374921755447,-0.0002781549293,0.100060073681,0.000143136295365,-0.00138466866528,0.000114949383956,0.999999024495
1349442728648585319,60403,1349442728648890359,/world,vicon/auk/auk,0.000309018722366,-7.61418070519e-05,0.100061270645,-1.30344097422e-06,-0.00039297579815,0.000196054555875,0.999999903565
1349442728658747891,60404,1349442728659052485,/world,vicon/auk/auk,0.000351998266356,-0.000226486281925,0.100034660013,0.000160775684872,-0.00138661329911,7.71642940623e-05,0.99999902275
1349442728667843876,60405,1349442728668842880,/world,vicon/auk/auk,0.000475915828238,-9.85998867555e-05,0.099962047792,1.52185477105e-05,-0.00141744939448,8.8553251003e-05,0.999998991381
1349442728678699086,60406,1349442728678957984,/world,vicon/auk/auk,0.000362128243009,-0.00022029874737,0.10005716169,-4.58230450938e-05,-0.00125169577568,8.27352157628e-05,0.999999212156
1349442728688283272,60407,1349442728689025235,/world,vicon/auk/auk,0.000320082166752,-0.000222375860763,0.100067835316,0.000136272134012,-0.00145992763543,5.47093334504e-05,0.999998923523
1349442728698359451,60408,1349442728699034507,/world,vicon/auk/auk,0.000373462521631,-0.000226185760365,0.100056140308,-2.74065944797e-05,-0.00133475943634,2.90323920996e-05,0.999999108411
1349442728708663231,60409,1349442728709203888,/world,vicon/auk/auk,0.00022918708433,-0.000185668486125,0.100150224735,-4.796764524e-06,-0.000501441149181,0.000225360111115,0.999999848873
1349442728718158040,60410,1349442728718962637,/world,vicon/auk/auk,0.000393123355703,-0.000257518612856,0.100016505889,0.000192854045875,-0.00141047445314,5.12537913034e-05,0.999998985371
1349442728728244609,60411,1349442728728977825,/world,vicon/auk/auk,0.000429567635464,-3.20778325735e-05,0.100008641717,-5.36526465581e-06,-0.00136826080314,-2.19985784658e-06,0.999999063914
1349442728738442100,60412,1349442728738974068,/world,vicon/auk/auk,0.000338516728188,-0.000192297994023,0.100080174416,-4.20655592822e-05,-0.00132800018798,0.000151443380103,0.999999105855
1349442728748104941,60413,1349442728748930926,/world,vicon/auk/auk,0.000269170902339,-0.000110770495893,0.100070962902,-2.7467212819e-06,-0.000342283833586,0.000215131271398,0.999999918276
1349442728758050989,60414,1349442728758823259,/world,vicon/auk/auk,0.000364205272257,-0.000188323222004,0.100009351998,6.64539067773e-05,-0.00147884374517,9.05984088018e-05,0.999998900198
1349442728768277674,60415,1349442728769004011,/world,vicon/auk/auk,0.000390251287258,-7.43827719902e-05,0.0999811131771,2.81002307045e-05,-0.00129482848835,-1.94037363914e-05,0.999999161126
1349442728777919353,60416,1349442728778777783,/world,vicon/auk/auk,0.000386471183781,-0.000317749620757,0.100008330083,-2.96275509502e-05,-0.00132151696262,-1.74113679499e-06,0.999999126356
1349442728788154060,60417,1349442728788914367,/world,vicon/auk/auk,0.000347208259415,-0.000202342598341,0.100053039772,7.07945858118e-05,-0.00135296819073,7.69261101163e-05,0.999999079273
1349442728798034466,60418,1349442728799057819,/world,vicon/auk/auk,0.00033316277769,-0.00023051799473,0.10004675062,-3.43619477613e-07,-0.00147319486577,0.000189760216725,0.999998896843
1349442728808191092,60419,1349442728809056215,/world,vicon/auk/auk,0.000333706084202,-0.000204900880068,0.100040252182,-2.04231461071e-05,-0.00121686996478,0.00017568391852,0.999999243972
1349442728818178151,60420,1349442728818752936,/world,vicon/auk/auk,0.00040950510578,-0.00021031536458,0.100083870974,9.84479296787e-05,-0.0015178166972,2.92107489306e-05,0.999998842843
1349442728828214158,60421,1349442728829034458,/world,vicon/auk/auk,0.000602741366647,-0.000289237181362,0.100086217792,-2.67428914454e-05,-0.00072149181097,0.000188307439272,0.999999721637
1349442728838064947,60422,1349442728838785955,/world,vicon/auk/auk,0.000196578299052,-0.000180552828524,0.100108856617,-2.0488814845e-06,-0.000307384405936,0.000180080418505,0.999999936541
1349442728848487327,60423,1349442728848957253,/world,vicon/auk/auk,0.00048717198509,-5.46038000781e-05,0.0999706896311,2.12148377956e-05,-0.00127404633407,-1.58823280773e-05,0.999999188051
1349442728858278608,60424,1349442728858931854,/world,vicon/auk/auk,0.000412901428634,-0.000226492505896,0.100028342474,8.43495713981e-05,-0.00139379173388,6.28318223603e-05,0.99999902314
1349442728868479104,60425,1349442728869119550,/world,vicon/auk/auk,0.000390278760469,-0.000171294556469,0.099998157327,7.48939289695e-05,-0.00155474682027,0.000133165926269,0.999998779709
1349442728878205705,60426,1349442728878892129,/world,vicon/auk/auk,0.000344686852544,-0.000163290825112,0.100032289851,1.89730843839e-05,-0.00129585938892,-1.11374025371e-05,0.999999160132
1349442728888715746,60427,1349442728889065803,/world,vicon/auk/auk,0.000391661249497,-0.000184184940794,0.100034267793,0.00010996079169,-0.00162054056991,0.000193282442719,0.999998662198
1349442728898118904,60428,1349442728899015773,/world,vicon/auk/auk,0.00035509605067,-0.000214865492429,0.100042818832,0.000158778665984,-0.0015137910054,0.000119314978192,0.999998834494
1349442728908243615,60429,1349442728908993466,/world,vicon/auk/auk,0.000327721442838,-0.000210228176423,0.10011598375,8.85787090564e-05,-0.0012273864124,8.87262456979e-05,0.999999238902
1349442728918500194,60430,1349442728918953857,/world,vicon/auk/auk,0.000296344928225,-7.94837925253e-05,0.100068319865,-7.07644941136e-05,-0.000138897926356,0.000103545547532,0.999999982489
1349442728928013007,60431,1349442728928900736,/world,vicon/auk/auk,0.000220202589919,-0.000193807063713,0.100149854268,-7.2043548306e-06,-0.000194924468015,0.000137357584387,0.999999971543
1349442728937961996,60432,1349442728938906261,/world,vicon/auk/auk,0.000409657875612,-8.36331735156e-05,0.100037428092,5.72254146673e-05,-0.00147795671036,8.17323137252e-05,0.999998902844
1349442728948684493,60433,1349442728949079086,/world,vicon/auk/auk,0.000342130659127,-0.000252796457664,0.1000539017,3.15876891786e-05,-0.00165748828721,-1.03056839917e-05,0.999998625813
1349442728959161210,60434,1349442728958976042,/world,vicon/auk/auk,0.000395495516847,-0.000147654749343,0.0999940447866,-9.55440490361e-05,-0.00105792988567,-8.54020121418e-05,0.999999432181
1349442728968556974,60435,1349442728969104043,/world,vicon/auk/auk,0.000363932909707,-0.000236549671927,0.100055882329,0.000125419611626,-0.00164820337096,-1.73712856034e-06,0.999998633845
1349442728978796576,60436,1349442728979297457,/world,vicon/auk/auk,0.000437567538621,-0.000106377472656,0.0999674174642,-0.000173993358674,-0.00126824271962,-3.05867803593e-05,0.999999180175
1349442728988216783,60437,1349442728989011641,/world,vicon/auk/auk,0.000344977821285,-0.000169633430541,0.100084082765,0.000156847520685,-0.00149259866119,0.000143146486973,0.999998863528
1349442728998101441,60438,1349442728998983811,/world,vicon/auk/auk,0.00020827758883,-0.000225041303301,0.100087410274,8.12646030965e-06,-0.000276164043982,0.000154553778268,0.99999994989
1349442729008295789,60439,1349442729008951986,/world,vicon/auk/auk,0.000307313139268,-0.000256714468811,0.100090679108,-4.09085398008e-05,-0.00135502856811,0.000110868187317,0.999999074966
1349442729018009394,60440,1349442729018958184,/world,vicon/auk/auk,0.000403968529959,-0.00022296743223,0.100042752509,1.87711602532e-05,-0.00157018255528,7.8102156142e-05,0.999998764036
1349442729028565109,60441,1349442729029019796,/world,vicon/auk/auk,0.000457344914883,-9.77326887133e-05,0.0999781102113,-3.27997444538e-05,-0.00123476445276,0.000130321225054,0.999999228648
1349442729038252118,60442,1349442729039010422,/world,vicon/auk/auk,0.000359589202253,-0.000205257932396,0.100085281525,9.73797360273e-05,-0.0014899690393,0.000112907146038,0.99999887888
1349442729049285410,60443,1349442729049202077,/world,vicon/auk/auk,0.000395270237262,-6.02401489264e-05,0.100067858359,0.00015333063968,-0.00162944152236,-4.60353334186e-05,0.999998659644
1349442729058142130,60444,1349442729058926509,/world,vicon/auk/auk,0.000194141525074,-0.000249067767462,0.100096971791,-2.93006858076e-05,-0.000382455134345,0.000235692689355,0.999999898659
1349442729068014625,60445,1349442729068887137,/world,vicon/auk/auk,0.000195146501454,-0.000167199190301,0.100074532167,1.49055416713e-05,-0.000306058351763,0.000194224191246,0.999999934192
1349442729077569080,60446,1349442729078861076,/world,vicon/auk/auk,0.000375272361097,-0.000199863759646,0.100046663801,0.000184893862911,-0.00158834316654,0.000136045117982,0.999998712235
1349442729088296176,60447,1349442729088993220,/world,vicon/auk/auk,0.000186602528537,-0.000180967528465,0.100160530056,5.96546047472e-05,-0.000408609507742,6.49321372694e-05,0.999999912632
1349442729098599058,60448,1349442729098950055,/world,vicon/auk/auk,0.000380185346976,-0.000169053354259,0.100084242726,0.000105164170347,-0.00150622257923,8.05504555313e-05,0.999998856872
1349442729108429531,60449,1349442729109028357,/world,vicon/auk/auk,0.000332130997084,-0.00020629888902,0.10003234588,2.67997862943e-05,-0.00108862840347,8.5663865356e-05,0.999999403416
1349442729118617157,60450,1349442729119104409,/world,vicon/auk/auk,0.000340343724946,-0.000211220023512,0.100074922067,0.000119235707973,-0.00137992201493,3.61629109181e-05,0.999999040145
1349442729128156103,60451,1349442729128965551,/world,vicon/auk/auk,0.000447545066606,-7.96937095562e-05,0.0999873847844,-7.63599338199e-06,-0.00134097076313,-7.51549002422e-05,0.999999098045
1349442729138345696,60452,1349442729139008238,/world,vicon/auk/auk,0.00033802112462,-0.000243765546472,0.100033910831,-0.000144773139663,-0.00111981312122,-6.08914089764e-05,0.999999360676
1349442729148057843,60453,1349442729149000230,/world,vicon/auk/auk,0.00024240110039,-9.41412164013e-06,0.100139360581,-2.08913458036e-05,-0.000422586969145,0.000295780375976,0.999999866749
1349442729158180322,60454,1349442729158923681,/world,vicon/auk/auk,0.000390590262638,-0.00020584814204,0.100040669696,0.000131052100973,-0.00147999064323,5.16825889483e-05,0.99999889489
1349442729167958956,60455,1349442729168868710,/world,vicon/auk/auk,0.000369172817306,-0.00024878831488,0.100015753012,0.000170310149462,-0.00124455881621,3.52921812944e-05,0.999999210411
1349442729177965634,60456,1349442729178775270,/world,vicon/auk/auk,0.000417971094381,-9.29234886268e-05,0.100023663093,-1.79348291883e-05,-0.00132246873567,4.78691210135e-05,0.999999124231
1349442729189207835,60457,1349442729188974244,/world,vicon/auk/auk,0.000239080913873,-0.000184080575926,0.100185324613,7.45567895934e-06,-0.000640775040241,0.000151240180813,0.999999783239
1349442729198462019,60458,1349442729198972131,/world,vicon/auk/auk,0.000391390459646,-0.000207111204884,0.100037497516,0.000259545948657,-0.00178514544524,8.07539566675e-05,0.999998369684
1349442729208117734,60459,1349442729209057856,/world,vicon/auk/auk,0.000201055647757,-0.000221698615938,0.100168635711,9.78012982405e-06,-0.000235930026022,0.000138143053577,0.999999962579
